{
"type": "FeatureCollection",
"crs": { "type": "name", "properties": { "name": "urn:ogc:def:crs:OGC:1.3:CRS84" } },
                                                                                
"features": [
{ "type": "Feature", "properties": { "id": 1, "name": "Vallée de la Jeunesse" }, "geometry": { "type": "Point", "coordinates": [ 6.60514848, 46.52125251 ] } },
{ "type": "Feature", "properties": { "id": 2, "name": "Déversoir d'Orage" }, "geometry": { "type": "Point", "coordinates": [ 6.60333605, 46.51935085 ] } },
{ "type": "Feature", "properties": { "id": 3, "name": "Giratoire Maladière" }, "geometry": { "type": "Point", "coordinates": [ 6.60352585, 46.51709196 ] } },
{ "type": "Feature", "properties": { "id": 4, "name": "Stade Pierre de Coubertain" }, "geometry": { "type": "Point", "coordinates": [ 6.60218402, 46.5153038 ] } },
{ "type": "Feature", "properties": { "id": 5, "name": "Ruines de Vidy" }, "geometry": { "type": "Point", "coordinates": [ 6.60151418, 46.51614734 ] } },
{ "type": "Feature", "properties": { "id": 6, "name": "Siège du CIO" }, "geometry": { "type": "Point", "coordinates": [ 6.59675168, 46.51724497 ] } },
{ "type": "Feature", "properties": { "id": 7, "name": "STEP de Vidy" }, "geometry": { "type": "Point", "coordinates": [ 6.59014892, 46.52002512 ] } },
{ "type": "Feature", "properties": { "id": 8, "name": "Chamberonne" }, "geometry": { "type": "Point", "coordinates": [ 6.58656617, 46.51758928 ] } },
{ "type": "Feature", "properties": { "id": 9, "name": "Allée de Dorigny" }, "geometry": { "type": "Point", "coordinates": [ 6.58287585, 46.51840335 ] } },
{ "type": "Feature", "properties": { "id": 10, "name": "Moraine de Dorigny" }, "geometry": { "type": "Point", "coordinates": [ 6.57981932, 46.52372777 ] } },
{ "type": "Feature", "properties": { "id": 11, "name": "UNIL - Mouline" }, "geometry": { "type": "Point", "coordinates": [ 6.57951478, 46.52564039 ] } }
]
}
